<?xml version="1.0" encoding="UTF-8"?>
<gpx xmlns="http://www.topografix.com/GPX/1/1" version="1.1" creator="Thomas Turrell-Croft">
   <wpt lat="54.65138" lon="-3.14773">
      <name>Skiddaw</name>
   </wpt>
   <wpt lat="54.67076" lon="-3.10104">
      <name>Great Calva</name>
   </wpt>
   <wpt lat="54.63994" lon="-3.04976">
      <name>Blencathra</name>
   </wpt>
   <wpt lat="54.59365" lon="-3.03233">
      <name>Clough Head</name>
   </wpt>
   <wpt lat="54.57568" lon="-3.01935">
      <name>Great Dodd</name>
   </wpt>
   <wpt lat="54.5669" lon="-3.02897">
      <name>Watson's Dodd</name>
   </wpt>
   <wpt lat="54.56112" lon="-3.01738">
      <name>Stybarrow Dodd</name>
   </wpt>
   <wpt lat="54.54771" lon="-3.01745">
      <name>Raise</name>
   </wpt>
   <wpt lat="54.54089" lon="-3.02504">
      <name>White Side</name>
   </wpt>
   <wpt lat="54.53082" lon="-3.02532">
      <name>Helvellyn Lower Man</name>
   </wpt>
   <wpt lat="54.52699" lon="-3.01749">
      <name>Helvellyn</name>
   </wpt>
   <wpt lat="54.51898" lon="-3.01542">
      <name>Nethermost Pike</name>
   </wpt>
   <wpt lat="54.50868" lon="-3.01115">
      <name>Dollywaggon Pike</name>
   </wpt>
   <wpt lat="54.49704" lon="-2.99162">
      <name>Fairfield</name>
   </wpt>
   <wpt lat="54.49485" lon="-3.014">
      <name>Seat Sandal</name>
   </wpt>
   <wpt lat="54.49115" lon="-3.05215">
      <name>Steel Fell</name>
   </wpt>
   <wpt lat="54.48422" lon="-3.07946">
      <name>Calf Crag</name>
   </wpt>
   <wpt lat="54.47595" lon="-3.11124">
      <name>High Raise (High White Stones)</name>
   </wpt>
   <wpt lat="54.47035" lon="-3.10252">
      <name>Sergeant Man</name>
   </wpt>
   <wpt lat="54.46218" lon="-3.11262">
      <name>Thunacar Knott</name>
   </wpt>
   <wpt lat="54.45689" lon="-3.10942">
      <name>Harrison Stickle</name>
   </wpt>
   <wpt lat="54.45638" lon="-3.12135">
      <name>Pike of Stickle</name>
   </wpt>
   <wpt lat="54.45793" lon="-3.15977">
      <name>Rossett Pike</name>
   </wpt>
   <wpt lat="54.44781" lon="-3.16621">
      <name>Bowfell</name>
   </wpt>
   <wpt lat="54.45716" lon="-3.17919">
      <name>Esk Pike</name>
   </wpt>
   <wpt lat="54.46493" lon="-3.19452">
      <name>Great End</name>
   </wpt>
   <wpt lat="54.45557" lon="-3.19967">
      <name>Ill Crag</name>
   </wpt>
   <wpt lat="54.45734" lon="-3.20687">
      <name>Broad Crag</name>
   </wpt>
   <wpt lat="54.45425" lon="-3.21165">
      <name>Scafell Pike</name>
   </wpt>
   <wpt lat="54.44749" lon="-3.2247">
      <name>Scafell</name>
   </wpt>
   <wpt lat="54.46488" lon="-3.27683">
      <name>Yewbarrow</name>
   </wpt>
   <wpt lat="54.48391" lon="-3.28985">
      <name>Red Pike (Wasdale)</name>
   </wpt>
   <wpt lat="54.49338" lon="-3.30214">
      <name>Steeple</name>
   </wpt>
   <wpt lat="54.49747" lon="-3.2811">
      <name>Pillar</name>
   </wpt>
   <wpt lat="54.48331" lon="-3.24409">
      <name>Kirk Fell</name>
   </wpt>
   <wpt lat="54.48207" lon="-3.21926">
      <name>Great Gable</name>
   </wpt>
   <wpt lat="54.48569" lon="-3.21374">
      <name>Green Gable</name>
   </wpt>
   <wpt lat="54.49647" lon="-3.21424">
      <name>Brandreth</name>
   </wpt>
   <wpt lat="54.50235" lon="-3.21015">
      <name>Grey Knotts</name>
   </wpt>
   <wpt lat="54.52723" lon="-3.20225">
      <name>Dale Head</name>
   </wpt>
   <wpt lat="54.53782" lon="-3.21372">
      <name>Hindscarth</name>
   </wpt>
   <wpt lat="54.54078" lon="-3.23505">
      <name>Robinson</name>
   </wpt>
</gpx>